,City,Cloudiness,Country,Date,Humidity,Latitude,Longitude,Max Temp,Wind Speed
0,San Diego,75,US,1604603448,31,32.72,-117.16,89.01,4.7
1,Upernavik,40,GL,1604603267,91,72.79,-56.15,7.5,6.55
2,Jagodina,75,RS,1604603489,100,43.98,21.26,53.6,5.82
3,Pevek,100,RU,1604603204,95,69.7,170.31,29.01,22.77
4,Punta Arenas,75,CL,1604603274,46,-53.15,-70.92,51.8,17.22
5,Mataura,100,NZ,1604603269,96,-46.19,168.86,46.0,1.01
6,Lexington,1,US,1604603434,48,37.99,-84.48,66.0,10.29
7,Taitung City,100,TW,1604603490,68,22.76,121.14,78.17,14.94
8,Busselton,0,AU,1604603262,81,-33.65,115.33,55.99,7.0
9,Saint-Philippe,39,RE,1604603281,64,-21.36,55.77,71.6,5.82
10,Vozdvizhenka,100,RU,1604603490,100,43.9,131.95,30.2,4.47
11,Tegul'det,44,RU,1604603490,97,57.31,88.17,23.97,7.47
12,Albany,99,US,1604603269,36,42.6,-73.97,66.99,1.99
13,Mangai,62,CD,1604603489,98,-4.05,19.53,71.69,3.53
14,Torbay,20,CA,1604603296,47,47.67,-52.73,37.0,12.75
15,Mandalgovi,0,MN,1604603491,69,45.76,106.27,26.26,17.83
16,Baykit,44,RU,1604603297,88,61.67,96.37,1.2,5.44
17,Beroroha,49,MG,1604603491,38,-21.67,45.17,82.45,4.5
18,Hilo,1,US,1604603214,61,19.73,-155.09,80.01,6.93
19,Blagodatnoye,0,RU,1604603491,86,45.4,42.59,41.0,2.24
20,Lebu,0,CL,1604603237,68,-37.62,-73.65,55.8,20.62
21,Rikitea,57,PF,1604603266,68,-23.12,-134.97,74.25,11.36
22,Albina,100,SR,1604603492,60,5.5,-54.05,86.02,4.54
23,Alvarães,98,BR,1604603492,58,-3.22,-64.8,90.88,1.39
24,Juba,64,SS,1604603492,50,4.85,31.58,83.34,2.15
25,Half Moon Bay,1,US,1604603281,68,37.46,-122.43,72.0,8.05
26,Port Alfred,38,ZA,1604603872,79,-33.59,26.89,68.49,6.87
27,Bluff,8,NZ,1604603873,96,-46.6,168.33,46.0,1.99
28,George Town,20,MY,1604603252,88,5.41,100.34,78.8,3.04
29,Te Anau,100,NZ,1604603310,88,-45.42,167.72,45.23,3.51
30,Butaritari,0,KI,1604603278,80,3.07,172.79,81.46,9.82
31,Qaanaaq,96,GL,1604603878,84,77.48,-69.36,-6.25,5.1
32,Porto Torres,0,IT,1604603492,93,40.84,8.4,59.0,3.36
33,Bosaso,10,SO,1604603493,56,11.28,49.18,75.69,4.54
34,Puerto Ayora,40,EC,1604603882,69,-0.74,-90.35,78.8,21.92
35,Hobart,40,AU,1604603632,58,-42.88,147.33,53.6,12.75
36,São Borja,0,BR,1604603332,32,-28.66,-56.0,79.5,11.01
37,Ushuaia,75,AR,1604603885,46,-54.8,-68.3,50.0,18.34
38,Saint George,1,US,1604603887,21,37.1,-113.58,69.8,6.93
39,Barrow,90,US,1604603888,85,71.29,-156.79,21.2,21.92
40,Kharp,100,RU,1604603493,97,66.8,65.81,22.24,8.3
41,Cape Town,75,ZA,1604603892,82,-33.93,18.42,66.99,12.75
42,Salinas,1,US,1604603008,37,36.68,-121.66,79.0,12.75
43,Lugovoy,0,KZ,1604603494,64,42.95,72.76,39.69,1.72
44,Caraballeda,54,VE,1604603494,70,10.61,-66.85,87.8,5.82
45,Kavaratti,92,IN,1604603494,71,10.57,72.64,83.39,3.78
46,Tres Marías,75,MX,1604603494,31,19.05,-99.24,77.0,3.67
47,East London,0,ZA,1604603900,93,-33.02,27.91,66.2,6.93
48,Cidreira,0,BR,1604603651,62,-30.18,-50.21,69.15,9.42
49,Bengkulu,97,ID,1604603903,87,-3.8,102.27,76.55,3.65
50,Alberton,100,CA,1604603209,76,46.82,-64.07,51.8,16.11
51,Portland,90,US,1604603224,82,45.52,-122.68,60.8,5.82
52,Mvuma,100,ZW,1604603495,52,-19.28,30.53,73.2,3.09
53,Narsaq,5,GL,1604603909,37,60.92,-46.05,21.2,6.93
54,Hamilton,1,US,1604603704,45,39.18,-84.53,66.99,9.17
55,Angoche,0,MZ,1604603495,74,-16.23,39.91,79.39,15.17
56,Shaki,75,AZ,1604603495,93,41.08,47.17,59.0,2.24
57,Viedma,0,AR,1604603914,27,-40.81,-63.0,73.99,5.01
58,Codrington,100,AU,1604603666,75,-38.27,141.97,50.7,7.27
59,Avarua,91,CK,1604603917,78,-21.21,-159.78,73.4,13.87
60,Hermanus,100,ZA,1604603919,91,-34.42,19.23,64.0,7.0
61,Mar del Plata,40,AR,1604603741,43,-38.0,-57.56,73.4,13.87
62,Tasiilaq,75,GL,1604603921,68,65.61,-37.64,28.4,8.05
63,Rocha,40,UY,1604603439,61,-34.48,-54.33,69.26,13.6
64,Saint Paul Harbor,1,US,1604603714,46,57.79,-152.41,30.2,3.36
65,Sistranda,75,NO,1604603496,93,63.73,8.83,50.0,25.28
66,Esperance,90,AU,1604603927,93,-33.87,121.9,48.2,5.82
67,Sorong,89,ID,1604603895,84,-0.88,131.25,78.71,6.08
68,Touros,40,BR,1604603496,62,-5.2,-35.46,86.0,16.11
69,Bintulu,40,MY,1604603297,94,3.17,113.03,77.0,2.24
70,Hithadhoo,100,MV,1604603933,71,-0.6,73.08,83.25,1.81
71,Saldanha,100,ZA,1604603935,88,-33.01,17.94,62.6,4.7
72,Hornepayne,6,CA,1604603497,86,49.21,-84.77,43.68,6.8
73,Thompson,90,CA,1604603702,77,55.74,-97.86,6.8,2.24
74,Kumul,1,CN,1604603497,70,42.8,93.45,31.71,3.89
75,New Norfolk,98,AU,1604603940,60,-42.78,147.06,53.01,5.99
76,Pisco,40,PE,1604603942,77,-13.7,-76.22,68.0,11.41
77,Severo-Kuril'sk,91,RU,1604603944,84,50.68,156.12,35.62,29.06
78,Castelldefels,75,ES,1604603497,72,41.28,1.97,64.99,18.34
79,Adrar,0,MR,1604603947,15,20.5,-10.07,87.42,7.05
80,Thinadhoo,0,MV,1604603948,66,0.53,72.93,83.79,2.44
81,Laas,5,IT,1604603451,93,46.62,10.7,50.0,5.82
82,Jamestown,1,US,1604603951,42,42.1,-79.24,64.0,11.41
83,Tuktoyaktuk,90,CA,1604603952,77,69.45,-133.04,6.8,13.87
84,Kailua,1,US,1604603289,83,21.4,-157.74,78.8,11.41
85,Bathsheba,40,BB,1604603954,66,13.22,-59.52,87.8,20.8
86,Castrillón,40,ES,1604603498,87,43.4,-6.79,51.8,2.24
87,Washougal,90,US,1604603370,82,45.58,-122.35,60.01,5.82
88,Elkton,0,US,1604603498,47,39.61,-75.83,70.0,10.16
89,Constantine,0,DZ,1604603499,48,36.37,6.61,62.6,3.36
90,Castro,0,BR,1604603962,42,-24.79,-50.01,69.37,4.68
91,Hasaki,75,JP,1604603964,100,35.73,140.83,48.2,2.24
92,Meulaboh,94,ID,1604603442,88,4.14,96.13,77.76,4.14
93,Altamira,75,BR,1604603499,79,-3.2,-52.21,84.2,4.7
94,Norman Wells,75,CA,1604603969,76,65.28,-126.83,-5.8,4.7
95,Saskylakh,100,RU,1604603970,93,71.92,114.08,5.05,8.66
96,Glenluce,97,GB,1604603499,93,54.88,-4.81,46.0,2.59
97,Sakakah,0,SA,1604603345,40,29.97,40.21,69.8,5.82
98,Lubbock,1,US,1604603500,15,33.6,-101.83,82.0,13.87
99,Provideniya,96,RU,1604603976,86,64.38,-173.3,36.23,16.58
100,Arraial do Cabo,75,BR,1604603977,78,-22.97,-42.03,73.4,8.05
101,Ust'-Ishim,91,RU,1604603500,99,57.69,71.17,29.88,4.74
102,Havøysund,75,NO,1604603500,80,71.0,24.66,41.0,16.11
103,Vilhena,0,BR,1604603347,26,-12.74,-60.15,93.2,6.93
104,Tiksi,99,RU,1604603985,95,71.69,128.87,8.56,6.46
105,Moose Factory,90,CA,1604603500,79,51.26,-80.61,35.6,9.17
106,Yellowknife,90,CA,1604603988,78,62.46,-114.35,12.2,12.75
107,Asbestovskiy,100,RU,1604603501,88,57.76,61.4,35.83,8.5
108,Smithers,90,CA,1604603501,75,54.78,-127.17,41.0,16.11
109,Lampang,0,TH,1604603501,91,18.33,99.5,71.26,1.1
110,Bambous Virieux,40,MU,1604603993,73,-20.34,57.76,73.4,6.93
111,Cabo San Lucas,5,MX,1604603995,51,22.89,-109.91,87.01,3.36
112,Longyearbyen,20,SJ,1604603996,69,78.22,15.64,39.2,19.46
113,Izumo,75,JP,1604603268,87,35.37,132.77,50.0,3.36
114,Atuona,1,PF,1604603999,75,-9.8,-139.03,78.87,23.11
115,Cap Malheureux,0,MU,1604603444,77,-19.98,57.61,72.0,4.0
116,Sitka,20,US,1604604002,59,57.05,-135.33,35.6,19.46
117,Port Augusta,0,AU,1604603502,71,-32.5,137.77,53.6,10.29
118,Alyangula,16,AU,1604603502,88,-13.85,136.42,80.6,2.24
119,Kapaa,20,US,1604604006,94,22.08,-159.32,78.01,6.93
120,Āsosa,0,ET,1604603502,69,10.07,34.53,66.13,3.74
121,Tezu,0,IN,1604603502,56,27.92,96.17,66.07,3.24
122,Port Elizabeth,0,ZA,1604604011,93,-33.92,25.57,66.2,8.05
123,Nouadhibou,4,MR,1604603503,77,20.93,-17.03,69.8,13.87
124,Fortuna,1,US,1604604015,82,40.6,-124.16,66.0,3.36
125,Talgar,22,KZ,1604603503,42,43.3,77.24,32.0,4.47
126,Warmbad,2,NA,1604603503,50,-28.45,18.73,65.71,18.37
127,Luau,83,AO,1604603503,84,-10.71,22.22,68.72,1.03
128,Bredasdorp,100,ZA,1604604021,88,-34.53,20.04,62.6,3.36
129,Aklavik,20,CA,1604603259,76,68.22,-135.01,-5.8,6.93
130,Paraopeba,75,BR,1604603503,45,-19.28,-44.4,82.4,5.82
131,Hualmay,14,PE,1604604027,64,-11.1,-77.61,68.5,10.83
132,Nevinnomyssk,4,RU,1604603504,5,44.63,41.95,51.01,3.0
133,San Quintín,97,MX,1604604030,34,30.48,-115.95,80.22,8.55
134,Praia da Vitória,40,PT,1604604031,67,38.73,-27.07,60.8,20.45
135,Kirakira,100,SB,1604603504,77,-10.45,161.92,78.82,3.65
136,Ribeira Grande,40,PT,1604604034,67,38.52,-28.7,60.8,6.93
137,Sokolo,0,ML,1604603504,24,14.73,-6.12,86.83,1.54
138,Funes,0,AR,1604603482,26,-32.92,-60.81,87.01,9.17
139,Khingansk,100,RU,1604603504,93,49.12,131.18,18.14,2.37
140,Carnarvon,40,AU,1604604042,94,-24.87,113.63,69.8,16.11
141,Hearst,92,CA,1604603505,100,49.68,-83.67,33.8,6.93
142,Misratah,0,LY,1604603505,61,32.38,15.09,71.01,9.08
143,Kununurra,1,AU,1604603505,83,-15.77,128.73,77.0,6.62
144,Shingū,39,JP,1604603505,58,33.73,135.98,52.05,5.48
145,Talnakh,40,RU,1604604049,84,69.49,88.4,-0.4,6.71
146,Mulanje,0,MW,1604603505,38,-16.03,35.5,79.66,4.94
147,Mahébourg,40,MU,1604604053,73,-20.41,57.7,73.4,6.93
148,Bailén,71,ES,1604603506,62,38.1,-3.78,62.01,4.0
149,Caborca,41,MX,1604603506,14,30.58,-111.1,91.94,21.94
150,Fare,3,PF,1604603506,80,-16.7,-151.02,79.9,18.54
151,Dali,7,CN,1604603506,86,25.7,100.18,53.26,3.98
152,Klaksvík,100,FO,1604604062,100,62.23,-6.59,48.2,19.46
153,Daru,97,PG,1604604063,87,-9.08,143.21,77.34,7.9
154,Kuandian,100,CN,1604603470,94,40.73,124.78,49.6,9.26
155,Caravelas,100,BR,1604604066,95,-17.71,-39.25,72.63,4.76
156,Geraldton,9,AU,1604603507,72,-28.77,114.6,66.2,9.17
157,Katobu,0,ID,1604603507,91,-4.94,122.53,75.4,2.21
158,Nome,90,US,1604603954,96,64.5,-165.41,33.8,41.38
159,Nanortalik,100,GL,1604604072,90,60.14,-45.24,30.25,33.6
160,Ishigaki,100,JP,1604603289,89,24.34,124.16,79.68,19.71
161,Mhasla,0,IN,1604603507,64,18.13,73.12,73.8,3.83
162,Dhidhdhoo,100,MV,1604603507,71,6.88,73.1,82.47,3.89
163,Kapoeta,0,SS,1604603507,42,4.77,33.59,84.85,5.79
164,Kamina,100,CD,1604603508,79,-8.74,24.99,69.28,3.89
165,Djambala,97,CG,1604603508,99,-2.54,14.75,67.24,2.8
166,Kutum,11,SD,1604603508,24,14.2,24.67,71.37,17.85
167,Yerofey Pavlovich,99,RU,1604604085,95,53.97,121.97,13.05,1.03
168,Faya,1,SA,1604604087,87,18.39,42.45,60.8,1.79
169,Talara,0,PE,1604603508,69,-4.58,-81.27,73.4,17.22
170,Berthierville,96,CA,1604603509,66,46.08,-73.18,66.2,2.24
171,Guerrero Negro,100,MX,1604604091,19,27.98,-114.06,88.99,7.25
172,Beringovskiy,100,RU,1604603256,94,63.05,179.32,37.31,20.0
173,Vaini,75,TO,1604604094,88,-21.2,-175.2,73.4,5.82
174,Badulla,36,LK,1604603509,90,6.99,81.06,69.94,1.43
175,Wilmington,90,US,1604603223,50,34.23,-77.94,75.2,8.05
176,Airai,28,TL,1604604099,73,-8.93,125.41,61.74,1.36
177,Souillac,40,MU,1604604100,73,-20.52,57.52,73.4,6.93
178,Dingle,96,PH,1604604102,89,11.0,122.67,74.46,3.78
179,Suzano,75,BR,1604603509,64,-23.54,-46.31,69.8,9.17
180,Hambantota,75,LK,1604604106,100,6.12,81.12,75.2,2.24
181,Muncar,5,ID,1604603510,88,-8.43,114.33,76.46,1.23
182,Laguna,1,US,1604604109,37,38.42,-121.42,75.99,2.33
183,Burnie,20,AU,1604603510,79,-41.07,145.92,51.01,7.0
184,Bethel,1,US,1604604112,39,41.37,-73.41,66.99,12.75
185,Salalah,0,OM,1604604113,53,17.02,54.09,75.2,3.36
186,Marzuq,0,YE,1604604115,55,14.4,46.47,62.69,2.57
187,Bunda,75,TZ,1604604116,73,-2.05,33.87,73.4,1.79
188,College,75,US,1604603862,69,64.86,-147.8,-2.99,4.7
189,Salgueiro,86,BR,1604604119,42,-8.07,-39.12,87.76,8.3
190,Khatanga,100,RU,1604604122,90,71.97,102.5,-4.72,2.19
191,The Valley,40,AI,1604603839,78,18.22,-63.06,82.4,14.99
192,Fairbanks,75,US,1604604084,69,64.84,-147.72,-2.99,4.7
193,Ahipara,90,NZ,1604604127,94,-35.17,173.17,63.72,5.68
194,Ostrovnoy,100,RU,1604604129,93,68.05,39.51,36.84,13.89
195,Chanute,1,US,1604604130,49,37.68,-95.46,71.6,6.93
196,Ilulissat,75,GL,1604604132,67,69.22,-51.1,17.6,14.99
197,Kruisfontein,100,ZA,1604604134,87,-34.0,24.73,66.0,2.71
198,Gannan,100,CN,1604604135,90,47.91,123.5,28.76,4.85
199,Dikson,0,RU,1604604137,91,73.51,80.55,-0.33,4.43
200,Semey,16,KZ,1604604138,71,50.41,80.23,36.55,5.77
201,Jiuquan,0,CN,1604604140,85,39.74,98.52,30.2,0.74
202,Bushenyi,100,UG,1604604142,88,-0.59,30.21,61.34,2.06
203,Ryōtsu-minato,63,JP,1604604143,64,38.08,138.43,56.48,8.61
204,Yele,89,CM,1604604145,33,10.73,13.59,73.49,5.48
205,Lakhīmpur,0,IN,1604604147,51,27.95,80.77,65.14,2.3
206,Hong Kong,0,HK,1604603993,80,22.29,114.16,73.0,1.01
207,Olafsvik,99,IS,1604604150,73,64.89,-23.71,41.11,54.02
208,Penzance,0,GB,1604604152,81,50.12,-5.54,48.2,14.99
209,Iqaluit,90,CA,1604603904,72,63.75,-68.51,15.8,17.22
210,Champerico,75,GT,1604604155,88,14.3,-91.92,82.4,4.7
211,Makakilo City,1,US,1604604156,78,21.35,-158.09,82.4,5.82
212,Boyolangu,100,ID,1604604157,89,-8.12,111.89,77.16,3.83
213,Teknāf,3,BD,1604604159,84,20.86,92.31,75.22,8.66
214,Rodrigues Alves,40,BR,1604604160,52,-7.74,-72.65,93.2,3.36
215,Mayahi,0,NE,1604604161,20,13.96,7.67,86.56,11.54
216,San Patricio,40,US,1604604162,51,28.02,-97.52,84.0,11.41
217,Forsytheganj,87,BY,1604604163,79,52.63,29.73,44.24,11.3
218,Punto Fijo,10,VE,1604604165,66,11.7,-70.2,86.02,21.7
219,Shimoda,4,JP,1604604166,86,34.67,138.95,52.0,1.01
220,Labuhan,100,ID,1604604167,80,-6.88,112.21,79.92,7.16
221,Nelson Bay,75,AU,1604604168,93,-32.72,152.15,62.01,13.87
222,Hokitika,100,NZ,1604604169,91,-42.72,170.97,57.09,4.36
223,Deputatsky,98,RU,1604604170,91,69.3,139.9,-9.56,1.23
224,Nikolskoye,75,RU,1604604172,81,59.7,30.79,46.99,22.37
225,Yangliuqing,58,CN,1604604173,58,39.14,117.0,53.6,2.24
226,Włodawa,7,PL,1604603920,94,51.55,23.55,39.0,10.31
227,Sokółka,69,PL,1604604164,86,53.41,23.5,45.0,14.52
228,Buala,100,SB,1604604176,84,-8.14,159.59,78.21,4.54
229,San Carlos,51,VE,1604604177,84,9.66,-68.58,81.45,2.68
230,Kurchum,0,KZ,1604604178,86,48.57,83.65,29.93,1.52
231,Faanui,0,PF,1604604180,81,-16.48,-151.75,79.3,18.28
232,Ancud,75,CL,1604604181,58,-41.87,-73.82,59.0,11.41
233,Towada,40,JP,1604604182,80,40.61,141.21,39.2,3.36
234,Isangel,0,VU,1604604183,79,-19.55,169.27,77.36,5.5
235,Mehamn,75,NO,1604604184,86,71.04,27.85,41.0,14.99
236,Yoro,75,HN,1604604185,78,15.13,-87.13,77.0,4.7
237,Bud,1,US,1604604186,48,39.45,-86.18,66.0,8.05
238,Amapá,11,BR,1604604187,53,1.0,-52.0,90.09,8.57
239,Lakes Entrance,4,AU,1604604188,93,-37.88,147.98,41.0,1.99
240,Jalu,1,LY,1604603956,55,29.03,21.55,68.36,7.87
241,Ponta do Sol,40,PT,1604604191,67,32.67,-17.1,60.8,5.82
242,Broken Hill,100,AU,1604604192,57,-31.95,141.43,50.0,9.17
243,Usol'ye,100,RU,1604604193,100,59.43,56.68,35.01,1.99
244,Pemangkat,100,ID,1604604194,88,1.17,108.97,76.71,3.6
245,Lüderitz,85,NA,1604604195,85,-26.65,15.16,61.14,9.01
246,Plettenberg Bay,9,ZA,1604604196,87,-34.05,23.37,65.79,4.27
247,Lorengau,100,PG,1604604197,80,-2.02,147.27,78.84,8.14
248,Dickinson,20,US,1604604127,57,29.46,-95.05,78.01,9.17
249,Grindavik,75,IS,1604604200,75,63.84,-22.43,42.8,44.96
250,Chokurdakh,100,RU,1604604201,95,70.63,147.92,4.1,10.51
251,Riyadh,0,SA,1604603927,26,24.69,46.72,71.6,2.24
252,San-Pédro,1,CI,1604604203,84,4.75,-6.64,79.56,5.23
253,Dunedin,100,NZ,1604604165,80,-45.87,170.5,50.0,4.94
254,Lavrentiya,100,RU,1604604205,94,65.58,-171.0,37.17,23.17
255,North Bend,90,US,1604604206,100,43.41,-124.22,60.01,9.17
256,Amos,75,CA,1604604208,66,48.57,-78.12,55.4,11.41
257,Saint-Augustin,100,CA,1604604209,86,51.23,-58.65,35.64,21.16
258,Berlevåg,75,NO,1604604210,92,70.86,29.09,32.0,1.12
259,Mittersill,99,AT,1604604211,92,47.27,12.48,46.99,0.89
260,Buritizeiro,65,BR,1604604212,48,-17.35,-44.96,84.72,1.72
261,Newton,40,US,1604604046,40,42.34,-71.21,70.0,25.28
262,Neiafu,40,TO,1604604214,78,-18.65,-173.98,77.0,13.87
263,Sanchazi,100,CN,1604604216,88,42.08,126.6,40.84,7.72
264,Dryden,75,CA,1604604217,70,49.78,-92.75,42.8,3.36
265,Yulara,40,AU,1604604218,19,-25.24,130.99,71.6,10.29
266,Mazagão,75,BR,1604604219,83,-0.12,-51.29,82.4,14.99
267,Kushima,0,JP,1604604220,81,31.46,131.23,59.05,5.1
268,Maltahöhe,0,NA,1604604221,43,-24.83,16.98,64.11,19.55
269,Totness,82,SR,1604604223,83,5.88,-56.32,81.37,6.96
270,Coyhaique,75,CL,1604604224,50,-45.58,-72.07,57.2,9.17
271,Araouane,0,ML,1604604066,17,18.9,-3.53,86.94,1.97
272,Joaíma,70,BR,1604604226,73,-16.65,-41.03,77.54,2.57
273,Bonavista,56,CA,1604604227,74,48.65,-53.11,36.0,4.7
274,Sisimiut,100,GL,1604604228,91,66.94,-53.67,22.5,9.84
275,Poso,82,ID,1604604229,75,-1.4,120.75,81.0,4.97
276,Angoram,100,PG,1604604231,97,-4.06,144.07,74.62,1.88
277,Xam Nua,100,LA,1604604232,92,20.42,104.04,62.26,1.68
278,Barra,65,BR,1604604233,57,-11.09,-43.14,83.55,4.65
279,Ahmednagar,0,IN,1604604234,48,19.08,74.73,70.41,6.71
280,Safford,1,US,1604604235,19,32.83,-109.71,80.6,6.93
281,Arrondissement de Marseille,0,FR,1604604236,82,43.33,5.5,62.01,6.93
282,Drumnadrochit,20,GB,1604604237,81,57.33,-4.48,50.0,11.41
283,Santa Cruz do Capibaribe,56,BR,1604604238,35,-7.96,-36.2,89.15,15.23
284,Mujiayingzi,0,CN,1604604239,55,42.12,118.78,43.39,13.51
285,Mackay,0,AU,1604604241,88,-21.15,149.2,68.0,5.82
286,Biak,77,ID,1604604242,78,-0.91,122.88,77.63,1.5
287,Apache Junction,20,US,1604604234,11,33.42,-111.55,95.0,17.22
288,Mezen',100,RU,1604604244,86,65.85,44.24,37.42,9.91
289,Paso Blanco,40,PA,1604604245,74,9.13,-79.23,84.0,12.75
290,Naze,90,JP,1604604246,78,28.37,129.48,75.2,13.87
291,Mossamedes,0,AO,1604604247,66,-15.2,12.15,70.88,8.25
292,Mpika,0,ZM,1604604248,26,-11.83,31.45,71.8,6.22
293,Barentu,0,ER,1604604250,46,15.11,37.59,75.0,9.98
294,Yuncheng,21,CN,1604604251,82,35.02,110.99,51.22,4.03
295,Zhigansk,97,RU,1604604252,91,66.77,123.37,-5.15,5.86
296,Kuchinda,0,IN,1604604253,59,21.73,84.35,67.42,2.91
297,Tautira,75,PF,1604604254,94,-17.73,-149.15,73.4,21.92
298,Sinnamary,100,GF,1604604255,87,5.38,-52.95,78.8,10.54
299,Yerbogachën,100,RU,1604604257,95,61.28,108.01,13.21,10.42
300,Leshukonskoye,100,RU,1604604258,89,64.9,45.76,38.07,8.59
301,Moelv,0,NO,1604604259,90,60.93,10.7,37.99,2.89
302,Vao,0,NC,1604604260,82,-22.67,167.48,74.3,7.83
303,Vicuña,0,CL,1604603962,22,-30.03,-70.71,82.99,3.0
304,Quatre Cocos,40,MU,1604604262,73,-20.21,57.76,73.4,6.93
305,Lakeway,40,US,1604604263,57,30.36,-97.98,80.01,5.82
306,Kavieng,100,PG,1604604187,74,-2.57,150.8,81.75,5.23
307,Diffa,92,NE,1604604265,22,13.32,12.61,81.14,9.55
308,Cockburn Town,75,TC,1604604267,78,21.46,-71.14,78.8,9.17
309,Vanimo,100,PG,1604604268,82,-2.67,141.3,78.39,6.71
310,San Joaquin,1,US,1604604269,36,37.93,-121.3,75.2,2.44
311,Pinheiro Machado,33,BR,1604604270,62,-31.58,-53.38,66.0,14.0
312,Kosonsoy,0,UZ,1604604271,39,41.26,71.55,46.4,6.93
313,Coquimbo,0,CL,1604604272,67,-29.95,-71.34,62.6,14.99
314,Masvingo,82,ZW,1604604274,84,-20.06,30.83,67.59,6.6
315,Shimokizukuri,27,JP,1604604275,78,40.81,140.39,50.5,9.46
316,Talavera,90,PH,1604604276,88,15.62,120.93,78.8,4.7
317,San Jose,40,US,1604604272,53,37.34,-121.89,75.0,3.36
318,Chara,87,RU,1604604278,79,56.91,118.26,3.87,1.3
319,Verāval,0,IN,1604604014,55,20.9,70.37,80.02,5.35
320,Innisfail,0,AU,1604604005,72,-17.53,146.03,69.48,3.71
321,Luanda,75,AO,1604604249,83,-8.84,13.23,78.8,9.17
322,São Félix do Xingu,100,BR,1604604282,84,-6.64,-51.99,82.38,0.4
323,Isla Vista,75,US,1604604283,14,34.41,-119.86,82.4,5.82
324,Sotnikovo,20,RU,1604604285,92,51.88,107.48,23.0,2.24
325,Esna,0,EG,1604604286,68,25.29,32.55,71.6,2.24
326,Rambha,0,IN,1604604287,73,19.52,85.1,76.57,3.09
327,Ferme-Neuve,100,CA,1604604288,45,46.7,-75.45,64.4,9.17
328,Sande,75,DE,1604604289,81,53.5,8.01,50.0,6.93
329,Velika Kladuša,100,BA,1604604290,89,45.19,15.81,48.0,1.99
330,Tiznit Province,100,MA,1604604291,37,29.58,-9.5,69.08,5.66
331,Chui,0,UY,1604604293,62,-33.7,-53.46,66.2,13.35
332,Kudahuvadhoo,23,MV,1604604068,70,2.67,72.89,83.19,2.8
333,Presidencia Roque Sáenz Peña,0,AR,1604604295,19,-26.79,-60.44,89.4,9.78
334,San Cristobal,40,VE,1604604278,58,7.77,-72.22,87.8,12.75
335,Sosnovo-Ozerskoye,100,RU,1604604297,97,52.52,111.54,19.31,10.36
336,Sahāranpur,0,IN,1604604298,40,29.97,77.55,62.02,2.89
337,Belgrade,90,RS,1604604299,100,44.8,20.47,50.0,9.17
338,Nosy Varika,60,MG,1604604300,86,-20.58,48.53,74.05,8.05
339,Kalemie,100,CD,1604604301,74,-5.95,29.19,75.87,3.94
340,Lakatoro,75,VU,1604604302,94,-16.1,167.42,78.8,7.25
341,Tuttlingen,100,DE,1604604304,85,47.98,8.82,48.0,7.63
342,Jacareacanga,20,BR,1604604305,49,-6.22,-57.75,93.2,3.36
343,Vredendal,100,ZA,1604604306,85,-31.67,18.5,62.55,12.48
344,San Policarpo,33,PH,1604604307,85,12.18,125.51,79.75,8.55
345,Aykhal,90,RU,1604604308,83,66.0,111.5,-5.8,6.71
346,Olivet,0,FR,1604604309,81,47.86,1.9,45.0,11.41
347,Poum,7,NC,1604604267,80,-20.23,164.02,76.33,7.61
348,Krasnosel'kup,0,RU,1604604312,88,65.7,82.47,-5.3,3.94
349,Pictou,100,CA,1604604089,76,45.68,-62.72,50.0,12.75
350,Caconda,90,AO,1604604314,74,-13.73,15.07,65.62,1.36
351,Sarkand,27,KZ,1604604315,53,45.41,79.92,41.81,2.37
352,Tocopilla,21,CL,1604604113,44,-22.09,-70.2,68.97,9.19
353,Yeppoon,0,AU,1604604317,83,-23.13,150.73,69.8,4.09
354,Galle,100,LK,1604604318,82,6.04,80.22,79.2,3.47
355,Goderich,100,CA,1604604169,55,43.75,-81.72,60.8,12.75
356,San Ramon,1,US,1604604256,31,37.78,-121.98,81.0,2.01
357,Nueve de Julio,0,AR,1604604321,41,-35.44,-60.88,76.82,6.85
358,Rafai,5,CF,1604604323,85,4.95,23.92,73.04,2.13
359,Kalmunai,40,LK,1604604243,75,7.42,81.82,80.65,3.58
360,Abalak,100,RU,1604604325,99,58.13,68.59,30.34,6.46
361,Lata,100,PT,1604604326,79,40.16,-8.33,62.01,1.99
362,Takoradze,100,GH,1604604327,83,4.88,-1.76,80.44,5.06
363,Manado,20,ID,1604604328,88,1.49,124.85,75.2,2.24
364,Evensk,100,RU,1604604250,85,61.95,159.23,2.66,10.33
365,Pangkalanbuun,100,ID,1604604330,95,-2.68,111.62,75.24,1.45
366,Naliya,0,IN,1604604331,64,23.27,68.83,77.49,4.32
367,Peniche,100,PT,1604604333,81,39.36,-9.38,61.0,15.01
368,Mumford,76,GH,1604604334,81,5.26,-0.76,80.73,5.82
369,Panabá,100,MX,1604604069,77,21.28,-88.27,82.54,18.03
370,Marovoay,40,MG,1604604336,78,-16.1,46.63,80.6,6.93
371,Bobcaygeon,1,CA,1604604206,52,44.55,-78.54,66.2,12.75
372,Lębork,75,PL,1604604338,93,54.54,17.75,48.0,21.92
373,Chumikan,0,RU,1604604339,94,54.72,135.31,16.9,21.34
374,São Filipe,23,CV,1604604340,74,14.9,-24.5,77.45,3.42
375,Navahrudak,91,BY,1604604342,85,53.6,25.83,40.98,17.22
376,Bac Lieu,100,VN,1604604343,88,9.29,105.72,77.83,6.11
377,Liverpool,90,GB,1604604156,93,53.41,-2.98,51.01,3.36
378,Morehead,1,US,1604604345,28,37.27,-87.18,71.6,9.17
379,Tual,87,ID,1604604220,77,-5.67,132.75,82.22,10.69
380,Trelew,0,AR,1604604347,19,-43.25,-65.31,74.73,11.5
381,Halifax,90,CA,1604604061,87,44.65,-63.57,53.6,19.46
382,Karratha,0,AU,1604604341,35,-20.74,116.85,76.53,13.15
383,Brezová pod Bradlom,0,SK,1604604064,81,48.66,17.54,45.0,9.17
384,Matara,100,LK,1604604352,87,5.95,80.54,77.86,3.76
385,Tinskoy,100,RU,1604604353,97,56.15,96.92,31.17,16.6
386,Bhandāra,0,IN,1604604354,72,21.17,79.65,62.6,4.79
387,Nador,0,MA,1604604077,77,35.17,-2.93,69.8,2.24
388,Gallup,1,US,1604604143,18,35.53,-108.74,71.6,5.82
389,Turukhansk,53,RU,1604604357,85,65.82,87.98,-3.14,5.57
390,Price,1,US,1604604358,25,39.6,-110.81,62.6,4.7
391,Asău,84,RO,1604604359,90,46.43,26.4,45.0,1.86
392,West Wendover,1,US,1604604360,35,40.74,-114.07,55.4,6.93
393,Uruçuí,78,BR,1604604361,66,-7.23,-44.56,84.9,4.52
394,Vila Velha,75,BR,1604604363,73,-20.33,-40.29,79.0,9.17
395,Vila Franca do Campo,40,PT,1604604364,63,37.72,-25.43,61.0,11.41
396,Lompoc,1,US,1604604236,29,34.64,-120.46,84.2,3.36
397,Erdaojiang,100,CN,1604604366,89,41.78,126.03,45.1,7.63
398,Nicoya,75,CR,1604604270,100,10.15,-85.45,75.2,8.05
399,La Ronge,100,CA,1604604368,85,55.1,-105.28,19.4,13.87
400,Saint Anthony,1,US,1604604369,31,45.02,-93.22,64.99,5.82
401,Romny,0,UA,1604604370,94,50.75,33.47,41.04,7.02
402,Boissevain,1,CA,1604604372,50,49.23,-100.06,62.01,16.11
403,Qui Nhon,100,VN,1604604373,92,13.77,109.23,75.96,15.39
404,Alice Springs,4,AU,1604604316,22,-23.7,133.88,64.4,8.05
405,Sept-Îles,100,CA,1604604302,91,50.2,-66.38,35.6,3.36
406,Taft,0,IR,1604604376,21,31.75,54.21,59.0,2.24
407,Tahe,19,CN,1604604377,94,52.33,124.73,14.32,2.91
408,Tamboril,40,DO,1604604378,66,19.49,-70.61,89.6,11.41
409,Lábrea,100,BR,1604604379,50,-7.26,-64.8,92.25,5.17
410,Port Lincoln,100,AU,1604604380,65,-34.73,135.87,53.51,6.76
411,Ailigandí,0,PA,1604604381,58,9.23,-78.02,86.65,7.14
412,Urubichá,95,BO,1604604383,12,-15.38,-62.95,106.57,2.26
413,Vostok,62,RU,1604604384,98,46.49,135.88,22.03,5.1
414,Tarko-Sale,12,RU,1604604385,93,64.92,77.78,0.14,7.56
415,Muli,4,MV,1604604386,68,2.92,73.57,83.12,2.8
416,Doha,0,QA,1604604158,57,25.29,51.53,82.0,4.7
417,Nizhniy Lomov,100,RU,1604604388,90,53.53,43.68,42.84,10.02
418,Bandiagara,0,ML,1604604389,49,14.35,-3.61,89.6,9.17
419,Palauig,100,PH,1604604390,77,15.44,119.9,79.32,3.22
420,Leningradskiy,100,RU,1604604392,98,69.38,178.42,30.92,17.52
421,Qaqortoq,5,GL,1604604393,37,60.72,-46.03,21.2,6.93
422,Pangnirtung,75,CA,1604604394,55,66.15,-65.71,10.4,2.24
423,Tabuk,100,PH,1604604395,88,17.42,121.44,70.84,1.88
424,Mount Isa,0,AU,1604604396,18,-20.73,139.5,73.4,14.99
425,Westport,20,US,1604604310,50,41.14,-73.36,68.0,1.01
426,Korla,0,CN,1604604398,69,41.76,86.15,36.61,1.07
427,São João da Barra,40,BR,1604604272,69,-21.64,-41.05,78.8,13.87
428,Ibrā’,0,OM,1604604400,58,22.69,58.53,61.92,0.98
429,Cherskiy,100,RU,1604604402,93,68.75,161.3,24.08,17.11
430,Arman',95,RU,1604604403,84,59.7,150.17,3.79,11.61
431,Constitución,0,CL,1604604243,48,-35.33,-72.42,63.21,19.93
432,Benghazi,45,LY,1604604405,74,32.12,20.07,70.29,14.07
433,Morant Bay,90,JM,1604604112,69,17.88,-76.41,80.6,18.34
434,Davila,75,PH,1604604407,94,18.47,120.58,75.2,2.24
435,Livingston,0,GB,1604604408,87,55.9,-3.52,50.0,6.93
436,Cabedelo,40,BR,1604604274,70,-6.98,-34.83,84.2,9.17
437,Sibu,40,MY,1604604410,94,2.3,111.82,77.0,1.54
438,Linqiong,20,CN,1604604411,100,30.42,103.46,59.0,4.36
439,Camacha,75,PT,1604604413,72,33.08,-16.33,59.0,15.1
440,Alofi,31,NU,1604604413,78,-19.06,-169.92,75.2,20.8
441,Lagoa,9,PT,1604604415,66,39.05,-27.98,60.94,20.31
442,Katsuura,75,JP,1604604414,66,35.13,140.3,55.0,10.29
443,Muros,100,ES,1604604417,79,42.78,-9.06,55.99,3.0
444,Margate,38,GB,1604604418,66,51.38,1.39,51.01,3.24
445,Magadan,97,RU,1604604419,83,59.57,150.8,4.77,9.13
446,Ballina,0,AU,1604604420,72,-28.87,153.57,59.0,9.17
447,Cape Canaveral,1,US,1604604416,65,28.41,-80.6,82.0,10.29
448,Tazovsky,0,RU,1604604423,89,67.47,78.7,-5.35,5.93
449,Grenfell,0,AU,1604604424,86,-33.9,148.17,43.05,7.81
450,Corrente,100,BR,1604604425,76,-3.74,-43.34,83.98,3.38
451,Colonia Carlos Antonio López,0,PY,1604604426,13,-26.4,-54.77,88.5,5.17
452,Kandrian,44,PG,1604604427,86,-6.22,149.55,76.95,3.02
453,Anyang,2,CN,1604604428,47,36.1,114.33,56.35,4.74
454,Grand Gaube,1,MU,1604604429,77,-20.01,57.66,72.0,5.99
455,Menongue,35,AO,1604604430,59,-14.66,17.69,70.54,7.38
456,Devarkonda,0,IN,1604604431,72,16.7,78.93,70.97,3.87
457,Nazca,5,PE,1604604433,26,-14.83,-74.95,84.81,9.37
458,Michigan City,1,US,1604604159,42,41.71,-86.89,69.01,11.41
459,Aknīste,100,LV,1604604435,85,56.16,25.75,48.15,14.32
460,Chekhov,100,RU,1604604179,81,55.14,37.47,42.01,11.3
461,Opuwo,0,NA,1604604325,22,-18.06,13.84,72.27,9.82
462,Los Llanos de Aridane,40,ES,1604604438,64,28.66,-17.92,69.8,3.36
463,Slave Lake,40,CA,1604604439,61,55.28,-114.77,33.8,2.24
464,Pacific Grove,1,US,1604604420,24,36.62,-121.92,82.4,6.93
465,Tabira,99,BR,1604604441,30,-7.59,-37.54,90.19,5.66
466,Mount Gambier,90,AU,1604604219,87,-37.83,140.77,48.2,5.82
467,Todos Santos,100,MX,1604604444,75,23.45,-110.22,82.99,8.01
468,Tacuarembó,1,UY,1604604445,58,-31.73,-55.98,73.51,9.89
469,Maubeuge,0,FR,1604604446,33,50.28,3.97,42.01,7.76
470,Pizarro,86,CO,1604604447,85,4.95,-77.37,78.19,11.97
471,Tuatapere,3,NZ,1604604248,96,-46.13,167.68,46.99,3.0
472,Nuuk,75,GL,1604604449,73,64.18,-51.72,23.0,18.34
473,Palenque/Temp,60,MX,1604604450,91,17.52,-91.97,77.27,10.27
474,Kaitangata,100,NZ,1604604447,92,-46.28,169.85,44.53,3.02
475,Iquique,0,CL,1604604199,59,-20.22,-70.14,66.2,18.34
476,Ouégoa,3,NC,1604604454,81,-20.35,164.43,75.22,3.87
477,Mirador,100,BR,1604604455,68,-6.37,-44.36,85.71,5.64
478,Sangar,100,RU,1604604456,93,63.92,127.47,0.9,0.69
479,Pargas,0,FI,1604604457,61,60.31,22.3,50.0,9.17
480,Richards Bay,100,ZA,1604604458,85,-28.78,32.04,72.55,9.93
481,Grants,1,US,1604604381,20,35.15,-107.85,68.0,10.29
482,Huicungo,0,PE,1604604460,63,-7.28,-76.8,95.0,3.58
483,Kaabong,4,UG,1604604427,56,3.48,34.15,71.51,11.83
484,Houma,40,US,1604604462,57,29.6,-90.72,77.0,8.05
485,Duvergé,75,DO,1604604464,79,18.38,-71.52,84.2,11.41
486,Varhaug,100,NO,1604604465,99,58.61,5.65,50.0,11.01
487,Hirānagar,0,IN,1604604466,28,32.45,75.27,63.77,4.38
488,Tsabong,0,BW,1604604467,21,-26.02,22.4,79.93,8.37
489,Mogadishu,13,SO,1604604468,83,2.04,45.34,79.77,9.98
490,Batemans Bay,37,AU,1604604469,96,-35.72,150.18,48.0,6.04
491,Newberry,1,US,1604604470,46,34.27,-81.62,73.0,5.82
492,Honningsvåg,75,NO,1604604257,86,70.98,25.97,41.0,14.99
493,Yumen,0,CN,1604604472,70,40.28,97.2,35.24,19.71
494,Mahuva,0,IN,1604604474,41,21.09,71.76,78.84,9.75
495,Bella Vista,1,US,1604604372,49,36.43,-94.23,73.99,10.29
496,Tubualá,40,PA,1604604476,74,9.52,-79.03,84.0,12.75
497,Porto Murtinho,0,BR,1604604477,10,-21.7,-57.88,101.91,5.01
498,Isiro,84,CD,1604604281,90,2.77,27.62,70.02,2.37
499,Sioux Lookout,90,CA,1604604479,93,50.1,-91.92,35.6,2.24
500,Bima,0,ID,1604604480,83,-8.47,118.72,77.5,1.77
501,Rypefjord,75,NO,1604604481,86,70.63,23.67,39.2,29.97
502,Linden,40,GY,1604604482,74,6.0,-58.3,86.0,9.17
503,Xinzhou,3,CN,1604604484,52,38.41,112.73,44.78,2.98
504,Makat,66,KZ,1604604485,43,47.65,53.35,50.34,13.31
505,Bijapur,0,IN,1604604486,56,16.83,75.7,70.18,8.57
506,Erzin,61,TR,1604604487,81,36.96,36.2,64.99,1.1
507,Ulagan,80,RU,1604604488,91,50.63,87.96,26.01,4.81
508,Haines Junction,0,CA,1604604489,59,60.75,-137.51,3.2,3.36
509,Waitati,100,NZ,1604604354,92,-45.75,170.57,48.99,4.65
510,Scotts Valley,0,US,1604604294,59,37.05,-122.01,81.0,2.08
511,Leh,100,IN,1604604467,73,34.17,77.58,29.07,3.49
512,Takāb,100,IR,1604604493,46,36.4,47.11,52.74,3.71
513,Malbork,100,PL,1604604494,100,54.04,19.03,48.99,14.2
514,Nishihara,90,JP,1604604406,94,26.18,127.76,78.8,16.11
515,Afuá,91,BR,1604604497,66,-0.16,-50.39,87.21,7.09
516,Severnoye,59,RU,1604604498,99,56.35,78.36,30.87,6.6
517,Dwārka,0,IN,1604604259,59,22.24,68.97,80.26,8.19
518,Villa Carlos Paz,10,AR,1604604327,26,-31.42,-64.5,88.0,3.0
519,Gao,34,ML,1604604239,19,16.64,1.64,86.25,11.41
520,Saint-Joseph,20,RE,1604604502,64,-21.37,55.62,71.6,5.82
521,Belyy Yar,0,RU,1604604503,59,53.6,91.39,35.6,13.42
522,Ushtobe,50,KZ,1604604504,69,45.25,77.98,37.27,9.33
523,Banjar,6,ID,1604604505,77,-8.19,114.97,76.96,5.01
524,Kloulklubed,90,PW,1604604507,94,7.04,134.26,77.0,11.72
525,Dicabisagan,100,PH,1604604508,82,17.08,122.42,74.66,3.98
526,Taoudenni,1,ML,1604604509,14,22.68,-3.98,84.42,6.55
527,Semnan,0,IR,1604604510,37,35.57,53.4,55.06,1.81
528,Lake Station,1,US,1604604490,45,41.58,-87.24,71.01,5.82
529,Kahului,20,US,1604604332,61,20.89,-156.47,82.4,3.36
530,Salinópolis,100,BR,1604604513,70,-0.61,-47.36,84.16,14.2
531,Añisoc,76,GQ,1604604514,93,1.87,10.77,71.42,1.1
532,Mahabalipuram,20,IN,1604604438,94,12.63,80.17,80.6,2.24
533,Sabang,93,ID,1604604517,79,5.89,95.32,81.68,8.66
534,Cayenne,0,GF,1604604283,78,4.93,-52.33,82.4,3.36
535,Savannah Bight,65,HN,1604604519,80,16.45,-85.85,81.27,9.26
536,Urengoy,2,RU,1604604520,91,65.97,78.37,-3.78,5.55
537,Vanavara,100,RU,1604604521,95,60.34,102.28,14.81,12.44
538,Antalaha,32,MG,1604604522,84,-14.9,50.28,72.93,7.31
539,Motygino,100,RU,1604604523,95,58.18,94.76,21.83,10.85
540,Puerto Quijarro,0,BO,1604604524,9,-17.78,-57.77,104.72,5.12
541,Touho,35,NC,1604604525,82,-20.78,165.23,75.43,3.74
542,Raudeberg,90,NO,1604604526,93,61.99,5.14,51.8,14.99
543,Hyères,0,FR,1604604528,87,43.12,6.12,62.01,2.24
544,Aksu,0,CN,1604604529,58,41.12,80.26,39.97,4.47
545,Safi,100,MA,1604604335,79,32.3,-9.24,65.28,17.16
546,Kyzyl-Suu,0,KG,1604604531,60,42.34,78.01,37.04,8.32
